{"type":"FeatureCollection","features":[{"type":"Feature","properties":{"id":1,"name":"Afghanistan","estimate":653},"geometry":{"type":"Point","coordinates":[67.71,33.9391]}},{"type":"Feature","properties":{"id":2,"name":"Albania","estimate":266},"geometry":{"type":"Point","coordinates":[20.1683,41.1533]}},{"type":"Feature","properties":{"id":3,"name":"Algeria","estimate":17950},"geometry":{"type":"Point","coordinates":[1.6596,28.0339]}},{"type":"Feature","properties":{"id":4,"name":"Angola","estimate":5791},"geometry":{"type":"Point","coordinates":[17.8739,-11.2027]}},{"type":"Feature","properties":{"id":5,"name":"Argentina","estimate":-163833},"geometry":{"type":"Point","coordinates":[-63.6167,-38.4161]}},{"type":"Feature","properties":{"id":6,"name":"Armenia","estimate":434},"geometry":{"type":"Point","coordinates":[45.0382,40.0691]}},{"type":"Feature","properties":{"id":7,"name":"Aruba","estimate":138},"geometry":{"type":"Point","coordinates":[-69.9683,12.5211]}},{"type":"Feature","properties":{"id":8,"name":"Austrialia ","estimate":-33258},"geometry":{"type":"Point","coordinates":[133.7751,-25.2744]}},{"type":"Feature","properties":{"id":9,"name":"Austria ","estimate":2420},"geometry":{"type":"Point","coordinates":[-14.5501,47.5162]}},{"type":"Feature","properties":{"id":10,"name":"Azerbaijan","estimate":903},"geometry":{"type":"Point","coordinates":[47.5769,40.1431]}},{"type":"Feature","properties":{"id":11,"name":"Bahamas","estimate":148},"geometry":{"type":"Point","coordinates":[-77.3963,25.0343]}},{"type":"Feature","properties":{"id":12,"name":"Bahrain","estimate":755},"geometry":{"type":"Point","coordinates":[50.5577,26.0667]}},{"type":"Feature","properties":{"id":13,"name":"Bangladesh","estimate":15254},"geometry":{"type":"Point","coordinates":[90.3563,23.685]}},{"type":"Feature","properties":{"id":14,"name":"Barbados","estimate":155},"geometry":{"type":"Point","coordinates":[-59.5432,13.9339]}},{"type":"Feature","properties":{"id":15,"name":"Belarus","estimate":1062},"geometry":{"type":"Point","coordinates":[27.9534,53.7098]}},{"type":"Feature","properties":{"id":16,"name":"Belgium ","estimate":8520},"geometry":{"type":"Point","coordinates":[4.4699,50.5039]}},{"type":"Feature","properties":{"id":17,"name":"Belize","estimate":-335},"geometry":{"type":"Point","coordinates":[-88.4976,17.1899]}},{"type":"Feature","properties":{"id":18,"name":"Benin","estimate":472},"geometry":{"type":"Point","coordinates":[2.3158,9.3077]}},{"type":"Feature","properties":{"id":19,"name":"Bermuda","estimate":16},"geometry":{"type":"Point","coordinates":[-64.7505,32.3078]}},{"type":"Feature","properties":{"id":22,"name":"Bhutan","estimate":4},"geometry":{"type":"Point","coordinates":[90.4336,27.5142]}},{"type":"Feature","properties":{"id":23,"name":"Botswana","estimate":954},"geometry":{"type":"Point","coordinates":[24.6849,-22.3285]}},{"type":"Feature","properties":{"id":24,"name":"Brazil","estimate":-329113},"geometry":{"type":"Point","coordinates":[-51.9253,-14.235]}},{"type":"Feature","properties":{"id":25,"name":"Brunei","estimate":240},"geometry":{"type":"Point","coordinates":[114.7277,4.5353]}},{"type":"Feature","properties":{"id":26,"name":"Bulgaria","estimate":1424},"geometry":{"type":"Point","coordinates":[25.4858,42.7339]}},{"type":"Feature","properties":{"id":27,"name":"Burkina Faso","estimate":609},"geometry":{"type":"Point","coordinates":[-1.5616,12.2383]}},{"type":"Feature","properties":{"id":28,"name":"Burundi ","estimate":214},"geometry":{"type":"Point","coordinates":[29.9189,-3.3731]}},{"type":"Feature","properties":{"id":29,"name":"Cambodia","estimate":-733},"geometry":{"type":"Point","coordinates":[104.991,12.5657]}},{"type":"Feature","properties":{"id":30,"name":"Cameroon","estimate":-336},"geometry":{"type":"Point","coordinates":[12.3547,7.3697]}},{"type":"Feature","properties":{"id":31,"name":"Canada ","estimate":5401},"geometry":{"type":"Point","coordinates":[-106.3468,56.1304]}},{"type":"Feature","properties":{"id":32,"name":"Cape Verde","estimate":279},"geometry":{"type":"Point","coordinates":[-23.0418,16.5388]}},{"type":"Feature","properties":{"id":33,"name":"Cayman Islands","estimate":35},"geometry":{"type":"Point","coordinates":[-81.2546,19.3133]}},{"type":"Feature","properties":{"id":34,"name":"Central African Republic","estimate":-88},"geometry":{"type":"Point","coordinates":[20.9394,6.6111]}},{"type":"Feature","properties":{"id":35,"name":"Chad","estimate":-7},"geometry":{"type":"Point","coordinates":[18.7322,15.4542]}},{"type":"Feature","properties":{"id":36,"name":"Chile","estimate":26663},"geometry":{"type":"Point","coordinates":[-71.543,-35.6751]}},{"type":"Feature","properties":{"id":37,"name":"China","estimate":270174},"geometry":{"type":"Point","coordinates":[104.1954,35.8617]}},{"type":"Feature","properties":{"id":38,"name":"Colombia","estimate":6078},"geometry":{"type":"Point","coordinates":[-74.2973,4.5709]}},{"type":"Feature","properties":{"id":39,"name":"Congo","estimate":-2300},"geometry":{"type":"Point","coordinates":[21.7587,-4.0383]}},{"type":"Feature","properties":{"id":40,"name":"Cook Islands","estimate":5},"geometry":{"type":"Point","coordinates":[-159.7777,-21.2367]}},{"type":"Feature","properties":{"id":41,"name":"Costa Rica","estimate":-369},"geometry":{"type":"Point","coordinates":[-83.7534,9.7489]}},{"type":"Feature","properties":{"id":42,"name":"Croatia","estimate":741},"geometry":{"type":"Point","coordinates":[15.2,45.1]}},{"type":"Feature","properties":{"id":43,"name":"Cuba","estimate":2297},"geometry":{"type":"Point","coordinates":[-77.7812,21.5218]}},{"type":"Feature","properties":{"id":44,"name":"Cyprus","estimate":368},"geometry":{"type":"Point","coordinates":[33.4299,35.1264]}},{"type":"Feature","properties":{"id":45,"name":"Democratic Republic of Congo","estimate":1530},"geometry":{"type":"Point","coordinates":[21.7587,-4.0383]}},{"type":"Feature","properties":{"id":46,"name":"Denmark","estimate":2959},"geometry":{"type":"Point","coordinates":[9.5018,56.2639]}},{"type":"Feature","properties":{"id":47,"name":"Dijbouti","estimate":3679},"geometry":{"type":"Point","coordinates":[42.5903,11.8251]}},{"type":"Feature","properties":{"id":49,"name":"Dominican Republic","estimate":1973},"geometry":{"type":"Point","coordinates":[-70.1627,18.7357]}},{"type":"Feature","properties":{"id":50,"name":"Ecuador","estimate":1392},"geometry":{"type":"Point","coordinates":[-78.1834,-1.8312]}},{"type":"Feature","properties":{"id":51,"name":"Egypt","estimate":41019},"geometry":{"type":"Point","coordinates":[30.8025,26.8206]}},{"type":"Feature","properties":{"id":52,"name":"El Salvador","estimate":2558},"geometry":{"type":"Point","coordinates":[-88.8965,13.7942]}},{"type":"Feature","properties":{"id":53,"name":"Equatorial Guinea","estimate":200},"geometry":{"type":"Point","coordinates":[10.2679,1.6508]}},{"type":"Feature","properties":{"id":54,"name":"Eritrea","estimate":90},"geometry":{"type":"Point","coordinates":[39.7823,15.1794]}},{"type":"Feature","properties":{"id":55,"name":"Estonia","estimate":357},"geometry":{"type":"Point","coordinates":[25.0136,58.5953]}},{"type":"Feature","properties":{"id":56,"name":"Ethiopia ","estimate":1612},"geometry":{"type":"Point","coordinates":[40.4897,9.145]}},{"type":"Feature","properties":{"id":57,"name":"Fiji","estimate":-324},"geometry":{"type":"Point","coordinates":[178.065,-17.7134]}},{"type":"Feature","properties":{"id":58,"name":"Finland","estimate":1389},"geometry":{"type":"Point","coordinates":[25.7482,61.9241]}},{"type":"Feature","properties":{"id":59,"name":"France","estimate":21889},"geometry":{"type":"Point","coordinates":[2.2137,46.2276]}},{"type":"Feature","properties":{"id":60,"name":"French Guiana","estimate":0},"geometry":{"type":"Point","coordinates":[-53.1258,3.9339]}},{"type":"Feature","properties":{"id":62,"name":"Gabon","estimate":362},"geometry":{"type":"Point","coordinates":[11.6014,-0.8031]}},{"type":"Feature","properties":{"id":63,"name":"Gambia","estimate":129},"geometry":{"type":"Point","coordinates":[-15.3101,13.4432]}},{"type":"Feature","properties":{"id":64,"name":"Georgia","estimate":850},"geometry":{"type":"Point","coordinates":[-82.9001,32.1656]}},{"type":"Feature","properties":{"id":65,"name":"Germany","estimate":36883},"geometry":{"type":"Point","coordinates":[10.4515,51.1657]}},{"type":"Feature","properties":{"id":66,"name":"Ghana","estimate":-7743},"geometry":{"type":"Point","coordinates":[-1.0232,7.9465]}},{"type":"Feature","properties":{"id":67,"name":"Greece","estimate":3441},"geometry":{"type":"Point","coordinates":[21.8243,39.0742]}},{"type":"Feature","properties":{"id":68,"name":"Grenada","estimate":14},"geometry":{"type":"Point","coordinates":[-61.679,12.1165]}},{"type":"Feature","properties":{"id":70,"name":"Guatamala","estimate":611},"geometry":{"type":"Point","coordinates":[-90.2308,15.7835]}},{"type":"Feature","properties":{"id":71,"name":"Guinea","estimate":525},"geometry":{"type":"Point","coordinates":[-9.6966,9.9556]}},{"type":"Feature","properties":{"id":72,"name":"Guyana","estimate":-8},"geometry":{"type":"Point","coordinates":[-58.9302,4.8604]}},{"type":"Feature","properties":{"id":73,"name":"Haiti","estimate":1134},"geometry":{"type":"Point","coordinates":[-72.2852,18.9712]}},{"type":"Feature","properties":{"id":74,"name":"Honduras","estimate":-3685},"geometry":{"type":"Point","coordinates":[-86.2419,15.2]}},{"type":"Feature","properties":{"id":75,"name":"Hong Kong","estimate":23266},"geometry":{"type":"Point","coordinates":[114.1694,22.3193]}},{"type":"Feature","properties":{"id":76,"name":"Hungary","estimate":1472},"geometry":{"type":"Point","coordinates":[19.5033,47.1625]}},{"type":"Feature","properties":{"id":77,"name":"Iceland","estimate":73},"geometry":{"type":"Point","coordinates":[-19.0208,64.9631]}},{"type":"Feature","properties":{"id":78,"name":"India","estimate":106160},"geometry":{"type":"Point","coordinates":[78.9629,20.5937]}},{"type":"Feature","properties":{"id":79,"name":"Indonesia","estimate":-391354},"geometry":{"type":"Point","coordinates":[113.9213,-0.7893]}},{"type":"Feature","properties":{"id":80,"name":"Iran","estimate":25533},"geometry":{"type":"Point","coordinates":[53.688,32.4279]}},{"type":"Feature","properties":{"id":81,"name":"Iraq","estimate":3053},"geometry":{"type":"Point","coordinates":[43.6793,33.2232]}},{"type":"Feature","properties":{"id":82,"name":"Ireland","estimate":2189},"geometry":{"type":"Point","coordinates":[-7.6921,53.1424]}},{"type":"Feature","properties":{"id":83,"name":"Isreal","estimate":5733},"geometry":{"type":"Point","coordinates":[34.8516,31.0461]}},{"type":"Feature","properties":{"id":84,"name":"Italy","estimate":34395},"geometry":{"type":"Point","coordinates":[12.5674,41.8719]}},{"type":"Feature","properties":{"id":85,"name":"Jamaica","estimate":907},"geometry":{"type":"Point","coordinates":[-77.2975,18.1096]}},{"type":"Feature","properties":{"id":86,"name":"Japan","estimate":77195},"geometry":{"type":"Point","coordinates":[138.2529,36.2048]}},{"type":"Feature","properties":{"id":87,"name":"Jordan","estimate":4781},"geometry":{"type":"Point","coordinates":[36.2384,30.5852]}},{"type":"Feature","properties":{"id":88,"name":"Kazakhstan","estimate":1315},"geometry":{"type":"Point","coordinates":[66.9237,40.0196]}},{"type":"Feature","properties":{"id":89,"name":"Kenya","estimate":7440},"geometry":{"type":"Point","coordinates":[37.9062,-0.0236]}},{"type":"Feature","properties":{"id":91,"name":"Kuwait","estimate":2621},"geometry":{"type":"Point","coordinates":[41.4818,29.3117]}},{"type":"Feature","properties":{"id":92,"name":"Kyrgyzstan","estimate":150},"geometry":{"type":"Point","coordinates":[74.7661,41.2044]}},{"type":"Feature","properties":{"id":93,"name":"Laos","estimate":-4704},"geometry":{"type":"Point","coordinates":[102.4955,19.8563]}},{"type":"Feature","properties":{"id":94,"name":"Latvia","estimate":638},"geometry":{"type":"Point","coordinates":[24.6032,56.8796]}},{"type":"Feature","properties":{"id":95,"name":"Lebanon","estimate":3376},"geometry":{"type":"Point","coordinates":[35.8623,33.8547]}},{"type":"Feature","properties":{"id":96,"name":"Lesotho","estimate":779},"geometry":{"type":"Point","coordinates":[28.2336,-29.61]}},{"type":"Feature","properties":{"id":97,"name":"Liberia","estimate":-4591},"geometry":{"type":"Point","coordinates":[-9.4295,6.4281]}},{"type":"Feature","properties":{"id":98,"name":"Libya","estimate":3413},"geometry":{"type":"Point","coordinates":[17.2283,26.3351]}},{"type":"Feature","properties":{"id":99,"name":"Lithuania","estimate":539},"geometry":{"type":"Point","coordinates":[23.8813,55.1694]}},{"type":"Feature","properties":{"id":100,"name":"Luxembourg","estimate":490},"geometry":{"type":"Point","coordinates":[6.1296,49.8153]}},{"type":"Feature","properties":{"id":101,"name":"Macao","estimate":398},"geometry":{"type":"Point","coordinates":[113.5439,22.1987]}},{"type":"Feature","properties":{"id":102,"name":"Madagascar ","estimate":3729},"geometry":{"type":"Point","coordinates":[46.8691,-18.7669]}},{"type":"Feature","properties":{"id":103,"name":"Malawi","estimate":-258},"geometry":{"type":"Point","coordinates":[34.3015,-13.2543]}},{"type":"Feature","properties":{"id":104,"name":"Malaysia","estimate":-79851},"geometry":{"type":"Point","coordinates":[101.9758,4.2105]}},{"type":"Feature","properties":{"id":105,"name":"Maldives","estimate":263},"geometry":{"type":"Point","coordinates":[73.2207,3.2028]}},{"type":"Feature","properties":{"id":106,"name":"Mali","estimate":107},"geometry":{"type":"Point","coordinates":[-3.9962,17.5707]}},{"type":"Feature","properties":{"id":107,"name":"Malta","estimate":290},"geometry":{"type":"Point","coordinates":[14.3754,35.9375]}},{"type":"Feature","properties":{"id":109,"name":"Mauritania","estimate":917},"geometry":{"type":"Point","coordinates":[-10.9408,35.9375]}},{"type":"Feature","properties":{"id":110,"name":"Mauritius","estimate":880},"geometry":{"type":"Point","coordinates":[57.5522,-20.3484]}},{"type":"Feature","properties":{"id":111,"name":"Mexico","estimate":3950},"geometry":{"type":"Point","coordinates":[-102.5528,23.6345]}},{"type":"Feature","properties":{"id":112,"name":"Moldova","estimate":119},"geometry":{"type":"Point","coordinates":[28.3699,47.4116]}},{"type":"Feature","properties":{"id":113,"name":"Mongolia","estimate":110},"geometry":{"type":"Point","coordinates":[103.8467,46.8625]}},{"type":"Feature","properties":{"id":114,"name":"Montenegro","estimate":115},"geometry":{"type":"Point","coordinates":[19.3744,42.7087]}},{"type":"Feature","properties":{"id":115,"name":"Morocco","estimate":6288},"geometry":{"type":"Point","coordinates":[-7.0926,31.7917]}},{"type":"Feature","properties":{"id":116,"name":"Mozambique","estimate":-6070},"geometry":{"type":"Point","coordinates":[35.5296,-18.6657]}},{"type":"Feature","properties":{"id":117,"name":"Myanmar","estimate":-1281},"geometry":{"type":"Point","coordinates":[95.956,21.9162]}},{"type":"Feature","properties":{"id":118,"name":"Namibia","estimate":1404},"geometry":{"type":"Point","coordinates":[18.4904,-22.9576]}},{"type":"Feature","properties":{"id":119,"name":"Nepal","estimate":2059},"geometry":{"type":"Point","coordinates":[84.124,28.3949]}},{"type":"Feature","properties":{"id":120,"name":"Netherlands","estimate":"22,080"},"geometry":{"type":"Point","coordinates":[5.2913,52.1326]}},{"type":"Feature","properties":{"id":121,"name":"New Caledonia","estimate":92},"geometry":{"type":"Point","coordinates":[165.618,-20.9043]}},{"type":"Feature","properties":{"id":122,"name":"New Zealand","estimate":3791},"geometry":{"type":"Point","coordinates":[174.886,-40.9006]}},{"type":"Feature","properties":{"id":123,"name":"Nicaragua","estimate":-13220},"geometry":{"type":"Point","coordinates":[-85.2072,12.8654]}},{"type":"Feature","properties":{"id":124,"name":"Niger ","estimate":454},"geometry":{"type":"Point","coordinates":[8.0817,17.6078]}},{"type":"Feature","properties":{"id":125,"name":"Nigeria","estimate":5442},"geometry":{"type":"Point","coordinates":[8.6753,9.082]}},{"type":"Feature","properties":{"id":126,"name":"North Korea","estimate":616},"geometry":{"type":"Point","coordinates":[127.5101,40.3399]}},{"type":"Feature","properties":{"id":127,"name":"Norway","estimate":1240},"geometry":{"type":"Point","coordinates":[8.4689,60.472]}},{"type":"Feature","properties":{"id":128,"name":"Oman","estimate":3191},"geometry":{"type":"Point","coordinates":[55.9754,21.4735]}},{"type":"Feature","properties":{"id":129,"name":"Pakistan","estimate":17808},"geometry":{"type":"Point","coordinates":[69.3451,30.3753]}},{"type":"Feature","properties":{"id":130,"name":"Palestine ","estimate":38},"geometry":{"type":"Point","coordinates":[35.2332,31.9522]}},{"type":"Feature","properties":{"id":131,"name":"Panama","estimate":318},"geometry":{"type":"Point","coordinates":[-80.7821,8.538]}},{"type":"Feature","properties":{"id":132,"name":"Papua New Guinea","estimate":-4048},"geometry":{"type":"Point","coordinates":[143.9555,-6.315]}},{"type":"Feature","properties":{"id":133,"name":"Paraguay","estimate":-120390},"geometry":{"type":"Point","coordinates":[-58.4438,-23.4425]}},{"type":"Feature","properties":{"id":134,"name":"Peru","estimate":612},"geometry":{"type":"Point","coordinates":[-75.0152,-9.19]}},{"type":"Feature","properties":{"id":135,"name":"Philippines","estimate":790},"geometry":{"type":"Point","coordinates":[121.774,12.8797]}},{"type":"Feature","properties":{"id":136,"name":"Poland","estimate":10794},"geometry":{"type":"Point","coordinates":[19.1451,51.9194]}},{"type":"Feature","properties":{"id":137,"name":"Portugal ","estimate":4682},"geometry":{"type":"Point","coordinates":[-8.2245,39.3999]}},{"type":"Feature","properties":{"id":138,"name":"Qatar","estimate":1051},"geometry":{"type":"Point","coordinates":[51.1839,25.3548]}},{"type":"Feature","properties":{"id":139,"name":"Reunion","estimate":0},"geometry":{"type":"Point","coordinates":[55.5364,-21.1151]}},{"type":"Feature","properties":{"id":140,"name":"Romania","estimate":2910},"geometry":{"type":"Point","coordinates":[24.9668,45.9432]}},{"type":"Feature","properties":{"id":141,"name":"Russia","estimate":72299},"geometry":{"type":"Point","coordinates":[105.3188,61.524]}},{"type":"Feature","properties":{"id":142,"name":"Rwanda","estimate":514},"geometry":{"type":"Point","coordinates":[29.8739,-1.9403]}},{"type":"Feature","properties":{"id":143,"name":"Saint Lucia","estimate":27},"geometry":{"type":"Point","coordinates":[-60.9789,13.9094]}},{"type":"Feature","properties":{"id":144,"name":"Samoa","estimate":82},"geometry":{"type":"Point","coordinates":[-172.1046,-13.759]}},{"type":"Feature","properties":{"id":145,"name":"Saudi Arabia","estimate":24167},"geometry":{"type":"Point","coordinates":[45.0792,23.8859]}},{"type":"Feature","properties":{"id":146,"name":"Senegal","estimate":1228},"geometry":{"type":"Point","coordinates":[14.4524,14.4974]}},{"type":"Feature","properties":{"id":147,"name":"Serbia","estimate":844},"geometry":{"type":"Point","coordinates":[21.0059,44.0165]}},{"type":"Feature","properties":{"id":148,"name":"Sierra Leone","estimate":11},"geometry":{"type":"Point","coordinates":[-11.7799,8.4606]}},{"type":"Feature","properties":{"id":149,"name":"Singapore","estimate":11014},"geometry":{"type":"Point","coordinates":[103.8198,1.3521]}},{"type":"Feature","properties":{"id":150,"name":"Slovakia","estimate":2322},"geometry":{"type":"Point","coordinates":[19.699,48.669]}},{"type":"Feature","properties":{"id":151,"name":"Slovenia","estimate":1254},"geometry":{"type":"Point","coordinates":[14.9955,46.1512]}},{"type":"Feature","properties":{"id":152,"name":"Solomon Islands","estimate":0},"geometry":{"type":"Point","coordinates":[160.1562,-9.6457]}},{"type":"Feature","properties":{"id":153,"name":"Somalia","estimate":500},"geometry":{"type":"Point","coordinates":[46.1996,5.1521]}},{"type":"Feature","properties":{"id":154,"name":"South Africa","estimate":12726},"geometry":{"type":"Point","coordinates":[22.9375,-30.5595]}},{"type":"Feature","properties":{"id":155,"name":"South Korea","estimate":40225},"geometry":{"type":"Point","coordinates":[127.7669,35.9078]}},{"type":"Feature","properties":{"id":156,"name":"Spain","estimate":20001},"geometry":{"type":"Point","coordinates":[-3.7492,40.4637]}},{"type":"Feature","properties":{"id":157,"name":"Sri Lanka","estimate":1244},"geometry":{"type":"Point","coordinates":[80.7718,7.8731]}},{"type":"Feature","properties":{"id":159,"name":"Suriname","estimate":-360},"geometry":{"type":"Point","coordinates":[-56.0278,3.9193]}},{"type":"Feature","properties":{"id":160,"name":"Swedan","estimate":3734},"geometry":{"type":"Point","coordinates":[18.6435,60.1282]}},{"type":"Feature","properties":{"id":161,"name":"Switzerland","estimate":4301},"geometry":{"type":"Point","coordinates":[8.2275,46.8182]}},{"type":"Feature","properties":{"id":162,"name":"Syria","estimate":1063},"geometry":{"type":"Point","coordinates":[38.9968,34.8021]}},{"type":"Feature","properties":{"id":163,"name":"Taiwan","estimate":13043},"geometry":{"type":"Point","coordinates":[120.9605,23.6978]}},{"type":"Feature","properties":{"id":164,"name":"Tanzania","estimate":-8775},"geometry":{"type":"Point","coordinates":[34.8888,-6.369]}},{"type":"Feature","properties":{"id":165,"name":"Thailand","estimate":-44735},"geometry":{"type":"Point","coordinates":[100.9925,15.87]}},{"type":"Feature","properties":{"id":166,"name":"Timor","estimate":216},"geometry":{"type":"Point","coordinates":[125.7275,-8.8742]}},{"type":"Feature","properties":{"id":167,"name":"Togo","estimate":-449},"geometry":{"type":"Point","coordinates":[0.8248,8.6195]}},{"type":"Feature","properties":{"id":169,"name":"Trinidad and Tobago","estimate":507},"geometry":{"type":"Point","coordinates":[-61.2225,10.6918]}},{"type":"Feature","properties":{"id":170,"name":"Tunisia","estimate":4352},"geometry":{"type":"Point","coordinates":[9.5375,33.8869]}},{"type":"Feature","properties":{"id":171,"name":"Turkey","estimate":18570},"geometry":{"type":"Point","coordinates":[35.2433,38.9637]}},{"type":"Feature","properties":{"id":172,"name":"Turkemenistan","estimate":187},"geometry":{"type":"Point","coordinates":[59.5563,38.9697]}},{"type":"Feature","properties":{"id":173,"name":"Uganda","estimate":-234},"geometry":{"type":"Point","coordinates":[32.2903,1.3733]}},{"type":"Feature","properties":{"id":174,"name":"Ukraine","estimate":3794},"geometry":{"type":"Point","coordinates":[31.1656,48.3794]}},{"type":"Feature","properties":{"id":175,"name":"United Arab Emirates","estimate":13125},"geometry":{"type":"Point","coordinates":[53.8478,23.4241]}},{"type":"Feature","properties":{"id":176,"name":"United Kingdom","estimate":26483},"geometry":{"type":"Point","coordinates":[-3.436,55.3781]}},{"type":"Feature","properties":{"id":177,"name":"United States","estimate":68428},"geometry":{"type":"Point","coordinates":[-95.7129,37.0902]}},{"type":"Feature","properties":{"id":178,"name":"Uruguay","estimate":-10692},"geometry":{"type":"Point","coordinates":[-55.7658,-32.5228]}},{"type":"Feature","properties":{"id":179,"name":"Vanuatu","estimate":2},"geometry":{"type":"Point","coordinates":[166.9592,-15.3767]}},{"type":"Feature","properties":{"id":180,"name":"Venezuela","estimate":25363},"geometry":{"type":"Point","coordinates":[-66.5897,6.4238]}},{"type":"Feature","properties":{"id":181,"name":"Vietnam","estimate":-17090},"geometry":{"type":"Point","coordinates":[108.2772,14.0583]}},{"type":"Feature","properties":{"id":182,"name":"Yemen","estimate":3258},"geometry":{"type":"Point","coordinates":[48.5164,15.5527]}},{"type":"Feature","properties":{"id":183,"name":"Zambia","estimate":-22138},"geometry":{"type":"Point","coordinates":[27.8493,-13.1339]}},{"type":"Feature","properties":{"id":184,"name":"Zimbabwe","estimate":2920},"geometry":{"type":"Point","coordinates":[29.1549,-19.0154]}}]}